[
  {
    "lat": "32.363768",
    "lng": "-86.1506925",
    "id": 8401366,
    "name": "Costco 1009 Montgomery, AL",
    "description": "Don Pablo Signature Blend",
    "store_image": "https:\/\/cdn.shopify.com\/s\/files\/1\/0258\/5893\/2824\/files\/Don_Pablo_Signature_Blend.png?v=1628801538",
    "address": "8251 EASTCHASE PKWY",
    "country": "USA",
    "state": "AL",
    "city": "MONTGOMERY",
    "postal": "36117-7033",
    "priority": 1
  },
  {
    "lat": "34.7441254",
    "lng": "-86.6025161",
    "id": 8401367,
    "name": "Costco 356 Huntsville, AL",
    "description": "Don Pablo Signature Blend",
    "store_image": "https:\/\/cdn.shopify.com\/s\/files\/1\/0258\/5893\/2824\/files\/Don_Pablo_Signature_Blend.png?v=1628801538",
    "address": "1205 N. MEMORIAL PKWY",
    "country": "USA",
    "state": "AL",
    "city": "HUNTSVILLE",
    "postal": "35801-5930",
    "priority": 1
  },
  {
    "lat": "30.46093",
    "lng": "-84.2122514",
    "id": 8401368,
    "name": "Costco 1026 Tallahassee, FL",
    "description": "Don Pablo Signature Blend",
    "store_image": "https:\/\/cdn.shopify.com\/s\/files\/1\/0258\/5893\/2824\/files\/Don_Pablo_Signature_Blend.png?v=1628801538",
    "address": "4067 LAGNIAPPE WAY",
    "country": "USA",
    "state": "FL",
    "city": "TALLAHASSEE",
    "postal": "32317-1201",
    "priority": 1
  },
  {
    "lat": "30.2019581",
    "lng": "-81.7567191",
    "id": 8401369,
    "name": "Costco 1294 W Jacksonville, FL",
    "description": "Don Pablo Signature Blend",
    "store_image": "https:\/\/cdn.shopify.com\/s\/files\/1\/0258\/5893\/2824\/files\/Don_Pablo_Signature_Blend.png?v=1628801538",
    "address": "8000 PARRAMORE RD",
    "country": "USA",
    "state": "FL",
    "city": "JACKSONVILLE",
    "postal": "32244-5704",
    "priority": 1
  },
  {
    "lat": "27.4959807",
    "lng": "-82.4712427",
    "id": 8401370,
    "name": "Costco 1364 Bradenton, FL",
    "description": "Don Pablo Signature Blend",
    "store_image": "https:\/\/cdn.shopify.com\/s\/files\/1\/0258\/5893\/2824\/files\/Don_Pablo_Signature_Blend.png?v=1628801538",
    "address": "805 LIGHTHOUSE DRIVE",
    "country": "USA",
    "state": "FL",
    "city": "BRADENTON",
    "postal": "34212",
    "priority": 1
  },
  {
    "lat": "26.5882276",
    "lng": "-80.0712471",
    "id": 8401371,
    "name": "Costco 180 Lantana, FL",
    "description": "Don Pablo Signature Blend",
    "store_image": "https:\/\/cdn.shopify.com\/s\/files\/1\/0258\/5893\/2824\/files\/Don_Pablo_Signature_Blend.png?v=1628801538",
    "address": "1873 LANTANA RD",
    "country": "USA",
    "state": "FL",
    "city": "LANTANA",
    "postal": "33462-2698",
    "priority": 1
  },
  {
    "lat": "26.418703",
    "lng": "-80.0940851",
    "id": 8401372,
    "name": "Costco 345 Boca Raton, FL",
    "description": "Don Pablo Signature Blend",
    "store_image": "https:\/\/cdn.shopify.com\/s\/files\/1\/0258\/5893\/2824\/files\/Don_Pablo_Signature_Blend.png?v=1628801538",
    "address": "7800 CONGRESS AVE",
    "country": "USA",
    "state": "FL",
    "city": "BOCA RATON",
    "postal": "33487-1200",
    "priority": 1
  },
  {
    "lat": "26.2194988",
    "lng": "-81.775276",
    "id": 8401373,
    "name": "Costco 354 Naples, FL",
    "description": "Don Pablo Signature Blend",
    "store_image": "https:\/\/cdn.shopify.com\/s\/files\/1\/0258\/5893\/2824\/files\/Don_Pablo_Signature_Blend.png?v=1628801538",
    "address": "6275 NAPLES BLVD",
    "country": "USA",
    "state": "FL",
    "city": "NAPLES",
    "postal": "34109-2030",
    "priority": 1
  },
  {
    "lat": "30.2516046",
    "lng": "-81.5334151",
    "id": 8401374,
    "name": "Costco 357 E Jacksonville, FL",
    "description": "Don Pablo Signature Blend",
    "store_image": "https:\/\/cdn.shopify.com\/s\/files\/1\/0258\/5893\/2824\/files\/Don_Pablo_Signature_Blend.png?v=1628801538",
    "address": "4901 GATE PKWY",
    "country": "USA",
    "state": "FL",
    "city": "JACKSONVILLE",
    "postal": "32246-4405",
    "priority": 1
  },
  {
    "lat": "27.9217568",
    "lng": "-82.3306069",
    "id": 8401375,
    "name": "Costco 358 Brandon, FL",
    "description": "Don Pablo Signature Blend",
    "store_image": "https:\/\/cdn.shopify.com\/s\/files\/1\/0258\/5893\/2824\/files\/Don_Pablo_Signature_Blend.png?v=1628801538",
    "address": "10921 CAUSEWAY BLVD",
    "country": "USA",
    "state": "FL",
    "city": "BRANDON",
    "postal": "33511-1997",
    "priority": 1
  },
  {
    "lat": "26.6822326",
    "lng": "-80.2255742",
    "id": 8401376,
    "name": "Costco 623 Royal Palm Beach, FL",
    "description": "Don Pablo Signature Blend",
    "store_image": "https:\/\/cdn.shopify.com\/s\/files\/1\/0258\/5893\/2824\/files\/Don_Pablo_Signature_Blend.png?v=1628801538",
    "address": "11001 SOUTHERN BLVD",
    "country": "USA",
    "state": "FL",
    "city": "ROYAL PALM BEACH",
    "postal": "33411-4240",
    "priority": 1
  },
  {
    "lat": "26.0097444",
    "lng": "-80.3604109",
    "id": 8401377,
    "name": "Costco 742 Pembroke Pines, FL",
    "description": "Don Pablo Signature Blend",
    "store_image": "https:\/\/cdn.shopify.com\/s\/files\/1\/0258\/5893\/2824\/files\/Don_Pablo_Signature_Blend.png?v=1628801538",
    "address": "15915 PINES BLVD",
    "country": "USA",
    "state": "FL",
    "city": "PEMBROKE PINES",
    "postal": "33027-1201",
    "priority": 1
  },
  {
    "lat": "26.8065511",
    "lng": "-80.0875392",
    "id": 8401378,
    "name": "Costco 93 Palm Beach Gardens, FL",
    "description": "Don Pablo Signature Blend",
    "store_image": "https:\/\/cdn.shopify.com\/s\/files\/1\/0258\/5893\/2824\/files\/Don_Pablo_Signature_Blend.png?v=1628801538",
    "address": "3250 NORTHLAKE BLVD",
    "country": "USA",
    "state": "FL",
    "city": "PALM BEACH GARDENS",
    "postal": "33403-1702",
    "priority": 1
  },
  {
    "lat": "34.9686638",
    "lng": "-85.194867",
    "id": 8401379,
    "name": "Costco 1083 Ft Oglethope, GA",
    "description": "Don Pablo Signature Blend",
    "store_image": "https:\/\/cdn.shopify.com\/s\/files\/1\/0258\/5893\/2824\/files\/Don_Pablo_Signature_Blend.png?v=1628801538",
    "address": "100 COBB PKWY",
    "country": "USA",
    "state": "GA",
    "city": "RINGGOLD",
    "postal": "30736-8566",
    "priority": 1
  },
  {
    "lat": "33.8725435",
    "lng": "-84.3370041",
    "id": 8401380,
    "name": "Costco 1084 Brookhaven, GA",
    "description": "Don Pablo Signature Blend \/ Subtle Earth Organic",
    "store_image": "https:\/\/cdn.shopify.com\/s\/files\/1\/0258\/5893\/2824\/files\/SEO_SB.png?v=1628802071",
    "address": "500 BROOKHAVEN AVE NE",
    "country": "USA",
    "state": "GA",
    "city": "ATLANTA",
    "postal": "30319-3291",
    "priority": 1
  },
  {
    "lat": "33.5250091",
    "lng": "-82.0206187",
    "id": 8401381,
    "name": "Costco 1102 Augusta, GA",
    "description": "Don Pablo Signature Blend",
    "store_image": "https:\/\/cdn.shopify.com\/s\/files\/1\/0258\/5893\/2824\/files\/Don_Pablo_Signature_Blend.png?v=1628801538",
    "address": "825 CABELA DR",
    "country": "USA",
    "state": "GA",
    "city": "AUGUSTA",
    "postal": "30909-8202",
    "priority": 1
  },
  {
    "lat": "34.21395",
    "lng": "-84.1163001",
    "id": 8401382,
    "name": "Costco 1175 Cummings, GA",
    "description": "Don Pablo Signature Blend \/ Subtle Earth Organic",
    "store_image": "https:\/\/cdn.shopify.com\/s\/files\/1\/0258\/5893\/2824\/files\/SEO_SB.png?v=1628802071",
    "address": "1211 BALD RIDGE MARINA RD",
    "country": "USA",
    "state": "GA",
    "city": "CUMMING",
    "postal": "30041-8484",
    "priority": 1
  },
  {
    "lat": "34.1197861",
    "lng": "-84.5151733",
    "id": 8401383,
    "name": "Costco 1295 Woodstock, GA",
    "description": "Don Pablo Signature Blend",
    "store_image": "https:\/\/cdn.shopify.com\/s\/files\/1\/0258\/5893\/2824\/files\/Don_Pablo_Signature_Blend.png?v=1628801538",
    "address": "113 LINCOLN ST",
    "country": "USA",
    "state": "GA",
    "city": "WOODSTOCK",
    "postal": "30188-7800",
    "priority": 1
  },
  {
    "lat": "33.3977622",
    "lng": "-84.6176939",
    "id": 8401384,
    "name": "Costco 1361 Sharpsburg, GA",
    "description": "Don Pablo Signature Blend \/ Subtle Earth Organic",
    "store_image": "https:\/\/cdn.shopify.com\/s\/files\/1\/0258\/5893\/2824\/files\/SEO_SB.png?v=1628802071",
    "address": "40 FISCHER CROSSINGS DR",
    "country": "USA",
    "state": "GA",
    "city": "SHARPSBURG",
    "postal": "30277",
    "priority": 1
  },
  {
    "lat": "33.9480143",
    "lng": "-84.1445236",
    "id": 8401385,
    "name": "Costco 187 Gwinnett, GA",
    "description": "Don Pablo Signature Blend",
    "store_image": "https:\/\/cdn.shopify.com\/s\/files\/1\/0258\/5893\/2824\/files\/Don_Pablo_Signature_Blend.png?v=1628801538",
    "address": "3980 VENTURE DR",
    "country": "USA",
    "state": "GA",
    "city": "DULUTH",
    "postal": "30096-5077",
    "priority": 1
  },
  {
    "lat": "33.9282579",
    "lng": "-84.3541944",
    "id": 8401386,
    "name": "Costco 188 Perimeter, GA",
    "description": "Don Pablo Signature Blend \/ Subtle Earth Organic",
    "store_image": "https:\/\/cdn.shopify.com\/s\/files\/1\/0258\/5893\/2824\/files\/SEO_SB.png?v=1628802071",
    "address": "6350 PEACHTREE DUNWOODY RD",
    "country": "USA",
    "state": "GA",
    "city": "ATLANTA",
    "postal": "30328-4527",
    "priority": 1
  },
  {
    "lat": "34.0047976",
    "lng": "-84.5696463",
    "id": 8401387,
    "name": "Costco 189 Town Center, GA",
    "description": "Don Pablo Signature Blend \/ Subtle Earth Organic",
    "store_image": "https:\/\/cdn.shopify.com\/s\/files\/1\/0258\/5893\/2824\/files\/SEO_SB.png?v=1628802071",
    "address": "645 BARRETT PARKWAY NW",
    "country": "USA",
    "state": "GA",
    "city": "KENNESAW",
    "postal": "30144-4922",
    "priority": 1
  },
  {
    "lat": "34.0620762",
    "lng": "-83.9959185",
    "id": 8401388,
    "name": "Costco 366 Mall of Georgia, GA",
    "description": "Don Pablo Signature Blend \/ Subtle Earth Organic",
    "store_image": "https:\/\/cdn.shopify.com\/s\/files\/1\/0258\/5893\/2824\/files\/SEO_SB.png?v=1628802071",
    "address": "1550 MALL OF GEORGIA BLVD",
    "country": "USA",
    "state": "GA",
    "city": "BUFORD",
    "postal": "30519-6551",
    "priority": 1
  },
  {
    "lat": "33.8823121",
    "lng": "-84.4703197",
    "id": 8401389,
    "name": "Costco 631 Cumberland Mall, GA",
    "description": "Don Pablo Signature Blend \/ Subtle Earth Organic",
    "store_image": "https:\/\/cdn.shopify.com\/s\/files\/1\/0258\/5893\/2824\/files\/SEO_SB.png?v=1628802071",
    "address": "2900 CUMBERLAND MALL SE",
    "country": "USA",
    "state": "GA",
    "city": "ATLANTA",
    "postal": "30339-8107",
    "priority": 1
  },
  {
    "lat": "34.0915616",
    "lng": "-84.278553",
    "id": 8401390,
    "name": "Costco 743 Alpharetta, GA",
    "description": "Don Pablo Signature Blend",
    "store_image": "https:\/\/cdn.shopify.com\/s\/files\/1\/0258\/5893\/2824\/files\/Don_Pablo_Signature_Blend.png?v=1628801538",
    "address": "2855 JORDAN CT",
    "country": "USA",
    "state": "GA",
    "city": "ALPHARETTA",
    "postal": "30004-3869",
    "priority": 1
  },
  {
    "lat": "35.7468039",
    "lng": "-78.8272924",
    "id": 8401391,
    "name": "Costco 1206 Apex, NC",
    "description": "Don Pablo Signature Blend",
    "store_image": "https:\/\/cdn.shopify.com\/s\/files\/1\/0258\/5893\/2824\/files\/Don_Pablo_Signature_Blend.png?v=1628801538",
    "address": "1021 PINE PLAZA DR",
    "country": "USA",
    "state": "NC",
    "city": "APEX",
    "postal": "27523-6406",
    "priority": 1
  },
  {
    "lat": "35.5830834",
    "lng": "-80.8552161",
    "id": 8401392,
    "name": "Costco 1333 Morrisville, NC",
    "description": "Don Pablo Signature Blend \/ Subtle Earth Organic",
    "store_image": "https:\/\/cdn.shopify.com\/s\/files\/1\/0258\/5893\/2824\/files\/SEO_SB.png?v=1628802071",
    "address": "392 TALBERT RD",
    "country": "USA",
    "state": "NC",
    "city": "MOORESVILLE",
    "postal": "28117",
    "priority": 1
  },
  {
    "lat": "36.028748",
    "lng": "-78.9143261",
    "id": 8401393,
    "name": "Costco 249 Durham, NC",
    "description": "Don Pablo Signature Blend",
    "store_image": "https:\/\/cdn.shopify.com\/s\/files\/1\/0258\/5893\/2824\/files\/Don_Pablo_Signature_Blend.png?v=1628801538",
    "address": "1510 N POINTE DR",
    "country": "USA",
    "state": "NC",
    "city": "DURHAM",
    "postal": "27705-3405",
    "priority": 1
  },
  {
    "lat": "36.0575846",
    "lng": "-79.8835827",
    "id": 8401394,
    "name": "Costco 339 Greensboro, NC",
    "description": "Don Pablo Signature Blend",
    "store_image": "https:\/\/cdn.shopify.com\/s\/files\/1\/0258\/5893\/2824\/files\/Don_Pablo_Signature_Blend.png?v=1628801538",
    "address": "4201 W WENDOVER AVE",
    "country": "USA",
    "state": "NC",
    "city": "GREENSBORO",
    "postal": "27407-1908",
    "priority": 1
  },
  {
    "lat": "35.1621148",
    "lng": "-80.8846939",
    "id": 8401395,
    "name": "Costco 359 Charlotte, NC",
    "description": "Don Pablo Signature Blend",
    "store_image": "https:\/\/cdn.shopify.com\/s\/files\/1\/0258\/5893\/2824\/files\/Don_Pablo_Signature_Blend.png?v=1628801538",
    "address": "500 TYVOLA RD",
    "country": "USA",
    "state": "NC",
    "city": "CHARLOTTE",
    "postal": "28217-3504",
    "priority": 1
  },
  {
    "lat": "36.0649578",
    "lng": "-80.3167843",
    "id": 8401396,
    "name": "Costco 361 Winston Salem, NC",
    "description": "Don Pablo Signature Blend",
    "store_image": "https:\/\/cdn.shopify.com\/s\/files\/1\/0258\/5893\/2824\/files\/Don_Pablo_Signature_Blend.png?v=1628801538",
    "address": "1085 HANES MALL BLVD",
    "country": "USA",
    "state": "NC",
    "city": "WINSTON SALEM",
    "postal": "27103-1310",
    "priority": 1
  },
  {
    "lat": "34.2484086",
    "lng": "-77.8728147",
    "id": 8401397,
    "name": "Costco 635 Wilmington, SC",
    "description": "Don Pablo Signature Blend",
    "store_image": "https:\/\/cdn.shopify.com\/s\/files\/1\/0258\/5893\/2824\/files\/Don_Pablo_Signature_Blend.png?v=1628801538",
    "address": "5351 GINGERWOOD DR",
    "country": "USA",
    "state": "NC",
    "city": "WILMINGTON",
    "postal": "28405-3091",
    "priority": 1
  },
  {
    "lat": "35.8191982",
    "lng": "-78.6237304",
    "id": 8401398,
    "name": "Costco 645 Raleigh, NC",
    "description": "Don Pablo Signature Blend",
    "store_image": "https:\/\/cdn.shopify.com\/s\/files\/1\/0258\/5893\/2824\/files\/Don_Pablo_Signature_Blend.png?v=1628801538",
    "address": "2838 WAKE FOREST RD",
    "country": "USA",
    "state": "NC",
    "city": "RALEIGH",
    "postal": "27609-7840",
    "priority": 1
  },
  {
    "lat": "34.8363875",
    "lng": "-82.3105939",
    "id": 8401399,
    "name": "Costco 1005 Greenville, SC",
    "description": "Don Pablo Signature Blend",
    "store_image": "https:\/\/cdn.shopify.com\/s\/files\/1\/0258\/5893\/2824\/files\/Don_Pablo_Signature_Blend.png?v=1628801538",
    "address": "1021 WOODRUFF RD",
    "country": "USA",
    "state": "SC",
    "city": "GREENVILLE",
    "postal": "29607-4108",
    "priority": 1
  },
  {
    "lat": "34.9398374",
    "lng": "-81.9974515",
    "id": 8401400,
    "name": "Costco 1008 Spartanburg, SC",
    "description": "Don Pablo Signature Blend",
    "store_image": "https:\/\/cdn.shopify.com\/s\/files\/1\/0258\/5893\/2824\/files\/Don_Pablo_Signature_Blend.png?v=1628801538",
    "address": "211 W BLACKSTOCK RD",
    "country": "USA",
    "state": "SC",
    "city": "SPARTANBURG",
    "postal": "29301-1382",
    "priority": 1
  },
  {
    "lat": "34.0703029",
    "lng": "-81.1390386",
    "id": 8401401,
    "name": "Costco 1232 Columbia, SC",
    "description": "Don Pablo Signature Blend",
    "store_image": "https:\/\/cdn.shopify.com\/s\/files\/1\/0258\/5893\/2824\/files\/Don_Pablo_Signature_Blend.png?v=1628801538",
    "address": "507 PINEY GROVE RD",
    "country": "USA",
    "state": "SC",
    "city": "COLUMBIA",
    "postal": "29210-3405",
    "priority": 1
  },
  {
    "lat": "32.8816282",
    "lng": "-79.7708353",
    "id": 8401402,
    "name": "Costco 1319 Mt Pleasant, SC",
    "description": "Don Pablo Signature Blend \/ Subtle Earth Organic",
    "store_image": "https:\/\/cdn.shopify.com\/s\/files\/1\/0258\/5893\/2824\/files\/SEO_SB.png?v=1628802071",
    "address": "3525 PARK AVENUE BLVD",
    "country": "USA",
    "state": "SC",
    "city": "MOUNT PLEASANT",
    "postal": "29466-7242",
    "priority": 1
  },
  {
    "lat": "33.7058243",
    "lng": "-78.9157407",
    "id": 8401403,
    "name": "Costco 338 Myrtle Beach, SC",
    "description": "Don Pablo Signature Blend",
    "store_image": "https:\/\/cdn.shopify.com\/s\/files\/1\/0258\/5893\/2824\/files\/Don_Pablo_Signature_Blend.png?v=1628801538",
    "address": "1021 OAK FOREST LN",
    "country": "USA",
    "state": "SC",
    "city": "MYRTLE BEACH",
    "postal": "29577-9795",
    "priority": 1
  },
  {
    "lat": "32.7952564",
    "lng": "-80.036252",
    "id": 8401404,
    "name": "Costco 360 Charleston, SC",
    "description": "Don Pablo Signature Blend",
    "store_image": "https:\/\/cdn.shopify.com\/s\/files\/1\/0258\/5893\/2824\/files\/Don_Pablo_Signature_Blend.png?v=1628801538",
    "address": "3050 ASHLEY TOWN CENTER DR",
    "country": "USA",
    "state": "SC",
    "city": "CHARLESTON",
    "postal": "29414-5664",
    "priority": 1
  },
  {
    "lat": "35.8967132",
    "lng": "-84.1405455",
    "id": 8401405,
    "name": "Costco 1116 Farragut, TN",
    "description": "Don Pablo Signature Blend",
    "store_image": "https:\/\/cdn.shopify.com\/s\/files\/1\/0258\/5893\/2824\/files\/Don_Pablo_Signature_Blend.png?v=1628801538",
    "address": "10745 KINGSTON PIKE",
    "country": "USA",
    "state": "TN",
    "city": "KNOXVILLE",
    "postal": "37934-3002",
    "priority": 1
  },
  {
    "lat": "35.1918334",
    "lng": "-89.7959006",
    "id": 8401406,
    "name": "Costco 352 NE Memphis, TN",
    "description": "Don Pablo Signature Blend",
    "store_image": "https:\/\/cdn.shopify.com\/s\/files\/1\/0258\/5893\/2824\/files\/Don_Pablo_Signature_Blend.png?v=1628801538",
    "address": "2431 N GERMANTOWN PKWY",
    "country": "USA",
    "state": "TN",
    "city": "CORDOVA",
    "postal": "38016-4494",
    "priority": 1
  },
  {
    "lat": "35.0479616",
    "lng": "-89.7973838",
    "id": 8401407,
    "name": "Costco 353 SE Memphis, TN",
    "description": "Don Pablo Signature Blend",
    "store_image": "https:\/\/cdn.shopify.com\/s\/files\/1\/0258\/5893\/2824\/files\/Don_Pablo_Signature_Blend.png?v=1628801538",
    "address": "3775 HACKS CROSS RD",
    "country": "USA",
    "state": "TN",
    "city": "MEMPHIS",
    "postal": "38125-2302",
    "priority": 1
  },
  {
    "lat": "35.9636496",
    "lng": "-86.8163855",
    "id": 8401408,
    "name": "Costco 386 Brentwood, TN",
    "description": "Don Pablo Signature Blend",
    "store_image": "https:\/\/cdn.shopify.com\/s\/files\/1\/0258\/5893\/2824\/files\/Don_Pablo_Signature_Blend.png?v=1628801538",
    "address": "98 SEABOARD LN",
    "country": "USA",
    "state": "TN",
    "city": "BRENTWOOD",
    "postal": "37027-2930",
    "priority": 1
  },
  {
    "lat": "36.1394963",
    "lng": "-86.8861619",
    "id": 8401409,
    "name": "Costco 630 W Nashville, TN",
    "description": "Don Pablo Signature Blend \/ Subtle Earth Organic",
    "store_image": "https:\/\/cdn.shopify.com\/s\/files\/1\/0258\/5893\/2824\/files\/SEO_SB.png?v=1628802071",
    "address": "6670 CHARLOTTE PIKE",
    "country": "USA",
    "state": "TN",
    "city": "NASHVILLE",
    "postal": "37209-4202",
    "priority": 1
  },
  {
    "lat": "36.0579112",
    "lng": "-79.899329",
    "id": 8401410,
    "name": "Greensboro Sam's Club No. 6402",
    "description": "Pablo's Pride Guatemala",
    "store_image": "https:\/\/cdn.shopify.com\/s\/files\/1\/0258\/5893\/2824\/files\/Pablos_Pride_Guatemala.png?v=1628801750",
    "address": "4418 W. Wendover Ave.",
    "country": "USA",
    "state": "NC",
    "city": "Greensboro",
    "postal": "27407",
    "priority": 1
  },
  {
    "lat": "36.3518467",
    "lng": "-94.1713742",
    "id": 8401411,
    "name": "Bentonville Sam's Club No. 4969",
    "description": "Pablo's Pride Guatemala",
    "store_image": "https:\/\/cdn.shopify.com\/s\/files\/1\/0258\/5893\/2824\/files\/Pablos_Pride_Guatemala.png?v=1628801750",
    "address": "3500 SE Club Blvd",
    "country": "USA",
    "state": "AR",
    "city": "Bentonville",
    "postal": "72712",
    "priority": 1
  },
  {
    "lat": "37.1783671",
    "lng": "-93.219718",
    "id": 8401412,
    "name": "Springfield Sam's Club No. 8296",
    "description": "Pablo's Pride Guatemala",
    "store_image": "https:\/\/cdn.shopify.com\/s\/files\/1\/0258\/5893\/2824\/files\/Pablos_Pride_Guatemala.png?v=1628801750",
    "address": "3660 E. Sunshine St.",
    "country": "USA",
    "state": "MO",
    "city": "Springfield",
    "postal": "65809",
    "priority": 1
  },
  {
    "lat": "37.1329584",
    "lng": "-93.3017564",
    "id": 8401413,
    "name": "Springfield Sam's Club No. 4985",
    "description": "Pablo's Pride Guatemala",
    "store_image": "https:\/\/cdn.shopify.com\/s\/files\/1\/0258\/5893\/2824\/files\/Pablos_Pride_Guatemala.png?v=1628801750",
    "address": "745 W El Camino Alto St",
    "country": "USA",
    "state": "MO",
    "city": "Springfield",
    "postal": "65810",
    "priority": 1
  },
  {
    "lat": "26.2710304",
    "lng": "-81.7676537",
    "id": 8401414,
    "name": "Naples Sam's Club No. 6364",
    "description": "Pablo's Pride Guatemala",
    "store_image": "https:\/\/cdn.shopify.com\/s\/files\/1\/0258\/5893\/2824\/files\/Pablos_Pride_Guatemala.png?v=1628801750",
    "address": "2550 Immokalee Rd.",
    "country": "USA",
    "state": "FL",
    "city": "Naples",
    "postal": "34110",
    "priority": 1
  },
  {
    "lat": "36.1082073",
    "lng": "-94.1822938",
    "id": 8401415,
    "name": "Fayetteville Sam's Club No. 8209",
    "description": "Pablo's Pride Guatemala",
    "store_image": "https:\/\/cdn.shopify.com\/s\/files\/1\/0258\/5893\/2824\/files\/Pablos_Pride_Guatemala.png?v=1628801750",
    "address": "3081 N Highway 112",
    "country": "USA",
    "state": "AR",
    "city": "Fayetteville",
    "postal": "72704",
    "priority": 1
  },
  {
    "lat": "30.4388006",
    "lng": "-89.1005989",
    "id": 8401416,
    "name": "Gulfport Sam's Club No. 8236",
    "description": "Pablo's Pride Guatemala",
    "store_image": "https:\/\/cdn.shopify.com\/s\/files\/1\/0258\/5893\/2824\/files\/Pablos_Pride_Guatemala.png?v=1628801750",
    "address": "10431 Old Hwy 49",
    "country": "USA",
    "state": "MS",
    "city": "Gulfport",
    "postal": "39503",
    "priority": 1
  },
  {
    "lat": "34.8062484",
    "lng": "-92.2079888",
    "id": 8401417,
    "name": "N. Little Rock Sam's Club No. 8266",
    "description": "Pablo's Pride Guatemala",
    "store_image": "https:\/\/cdn.shopify.com\/s\/files\/1\/0258\/5893\/2824\/files\/Pablos_Pride_Guatemala.png?v=1628801750",
    "address": "5600 Landers Rd.",
    "country": "USA",
    "state": "AR",
    "city": "N. Little Rock",
    "postal": "72117",
    "priority": 1
  },
  {
    "lat": "34.9384138",
    "lng": "-80.9586114",
    "id": 8401418,
    "name": "Rock Hill Sam's Club No. 6236",
    "description": "Pablo's Pride Guatemala",
    "store_image": "https:\/\/cdn.shopify.com\/s\/files\/1\/0258\/5893\/2824\/files\/Pablos_Pride_Guatemala.png?v=1628801750",
    "address": "2474 Cross Pointe Drive",
    "country": "USA",
    "state": "SC",
    "city": "Rock Hill",
    "postal": "29730",
    "priority": 1
  },
  {
    "lat": "29.6240949",
    "lng": "-82.3845491",
    "id": 8401419,
    "name": "Gainesville Sam's Club No. 8155",
    "description": "Pablo's Pride Guatemala",
    "store_image": "https:\/\/cdn.shopify.com\/s\/files\/1\/0258\/5893\/2824\/files\/Pablos_Pride_Guatemala.png?v=1628801750",
    "address": "4001 SW 30th Place",
    "country": "USA",
    "state": "FL",
    "city": "Gainesville",
    "postal": "32608",
    "priority": 1
  },
  {
    "lat": "47.5175136",
    "lng": "-111.321278",
    "id": 8401420,
    "name": "Great Falls Sam's Club No. 6379",
    "description": "Pablo's Pride Guatemala",
    "store_image": "https:\/\/cdn.shopify.com\/s\/files\/1\/0258\/5893\/2824\/files\/Pablos_Pride_Guatemala.png?v=1628801750",
    "address": "401 N.W.Byp.",
    "country": "USA",
    "state": "MT",
    "city": "Great Falls",
    "postal": "59404",
    "priority": 1
  },
  {
    "lat": "35.3498678",
    "lng": "-94.3480532",
    "id": 8401421,
    "name": "Ft. Smith Sam's Club No. 8134",
    "description": "Pablo's Pride Guatemala",
    "store_image": "https:\/\/cdn.shopify.com\/s\/files\/1\/0258\/5893\/2824\/files\/Pablos_Pride_Guatemala.png?v=1628801750",
    "address": "7700 Rogers Ave.",
    "country": "USA",
    "state": "AR",
    "city": "Ft. Smith",
    "postal": "72903",
    "priority": 1
  },
  {
    "lat": "21.294915",
    "lng": "-157.8429453",
    "id": 8401422,
    "name": "Honolulu Sam's Club No. 4755",
    "description": "Pablo's Pride Guatemala",
    "store_image": "https:\/\/cdn.shopify.com\/s\/files\/1\/0258\/5893\/2824\/files\/Pablos_Pride_Guatemala.png?v=1628801750",
    "address": "750 Ke'eaumoku St.",
    "country": "USA",
    "state": "HI",
    "city": "Honolulu",
    "postal": "96814",
    "priority": 1
  },
  {
    "lat": "33.399913",
    "lng": "-84.6237114",
    "id": 8401423,
    "name": "Sharpsburg Sam's Club No. 4789",
    "description": "Pablo's Pride Guatemala",
    "store_image": "https:\/\/cdn.shopify.com\/s\/files\/1\/0258\/5893\/2824\/files\/Pablos_Pride_Guatemala.png?v=1628801750",
    "address": "310 fisher rd",
    "country": "USA",
    "state": "GA",
    "city": "Sharpsburg",
    "postal": "30277",
    "priority": 1
  },
  {
    "lat": "30.4828235",
    "lng": "-87.214861",
    "id": 8401424,
    "name": "Pensacola Sam's Club No. 8119",
    "description": "Pablo's Pride Guatemala",
    "store_image": "https:\/\/cdn.shopify.com\/s\/files\/1\/0258\/5893\/2824\/files\/Pablos_Pride_Guatemala.png?v=1628801750",
    "address": "1250 Airport Blvd.",
    "country": "USA",
    "state": "FL",
    "city": "Pensacola",
    "postal": "32504",
    "priority": 1
  },
  {
    "lat": "28.5700525",
    "lng": "-81.285562",
    "id": 8401425,
    "name": "Orlando Sam's Club No. 6212",
    "description": "Pablo's Pride Guatemala",
    "store_image": "https:\/\/cdn.shopify.com\/s\/files\/1\/0258\/5893\/2824\/files\/Pablos_Pride_Guatemala.png?v=1628801750",
    "address": "7701 E. Colonial Dr.",
    "country": "USA",
    "state": "FL",
    "city": "Orlando",
    "postal": "32807",
    "priority": 1
  },
  {
    "lat": "34.4697758",
    "lng": "-93.0698289",
    "id": 8401426,
    "name": "Hot Springs Sam's Club No. 4825",
    "description": "Pablo's Pride Guatemala",
    "store_image": "https:\/\/cdn.shopify.com\/s\/files\/1\/0258\/5893\/2824\/files\/Pablos_Pride_Guatemala.png?v=1628801750",
    "address": "1368 Higdon Ferry Road",
    "country": "USA",
    "state": "AR",
    "city": "Hot Springs",
    "postal": "71913",
    "priority": 1
  },
  {
    "lat": "34.0431365",
    "lng": "-84.3147458",
    "id": 8401427,
    "name": "Alpharetta Sam's Club No. 6646",
    "description": "Pablo's Pride Guatemala",
    "store_image": "https:\/\/cdn.shopify.com\/s\/files\/1\/0258\/5893\/2824\/files\/Pablos_Pride_Guatemala.png?v=1628801750",
    "address": "10600 Davis Dr.",
    "country": "USA",
    "state": "GA",
    "city": "Alpharetta",
    "postal": "30009",
    "priority": 1
  },
  {
    "lat": "30.4393536",
    "lng": "-86.6402765",
    "id": 8401428,
    "name": "Ft.Walton Beach Sam's Club No. 6361",
    "description": "Pablo's Pride Guatemala",
    "store_image": "https:\/\/cdn.shopify.com\/s\/files\/1\/0258\/5893\/2824\/files\/Pablos_Pride_Guatemala.png?v=1628801750",
    "address": "740 N. Beal Pkwy.",
    "country": "USA",
    "state": "FL",
    "city": "Ft.Walton Beach",
    "postal": "32547",
    "priority": 1
  },
  {
    "lat": "38.9513101",
    "lng": "-92.2964404",
    "id": 8401429,
    "name": "Columbia Sam's Club No. 8163",
    "description": "Pablo's Pride Guatemala",
    "store_image": "https:\/\/cdn.shopify.com\/s\/files\/1\/0258\/5893\/2824\/files\/Pablos_Pride_Guatemala.png?v=1628801750",
    "address": "101 Conley Rd.",
    "country": "USA",
    "state": "MO",
    "city": "Columbia",
    "postal": "65201",
    "priority": 1
  },
  {
    "lat": "37.0508644",
    "lng": "-94.4747909",
    "id": 8401430,
    "name": "Joplin Sam's Club No. 6415",
    "description": "Pablo's Pride Guatemala",
    "store_image": "https:\/\/cdn.shopify.com\/s\/files\/1\/0258\/5893\/2824\/files\/Pablos_Pride_Guatemala.png?v=1628801750",
    "address": "3536 Hammons Blvd.",
    "country": "USA",
    "state": "MO",
    "city": "Joplin",
    "postal": "64804",
    "priority": 1
  },
  {
    "lat": "36.2948249",
    "lng": "-95.8283378",
    "id": 8401431,
    "name": "Owasso Sam's Club No. 6238",
    "description": "Pablo's Pride Guatemala",
    "store_image": "https:\/\/cdn.shopify.com\/s\/files\/1\/0258\/5893\/2824\/files\/Pablos_Pride_Guatemala.png?v=1628801750",
    "address": "12905 E 96th ST. N",
    "country": "USA",
    "state": "OK",
    "city": "Owasso",
    "postal": "74055",
    "priority": 1
  },
  {
    "lat": "35.2164146",
    "lng": "-97.4931033",
    "id": 8401432,
    "name": "Norman Sam's Club No. 4761",
    "description": "Pablo's Pride Guatemala",
    "store_image": "https:\/\/cdn.shopify.com\/s\/files\/1\/0258\/5893\/2824\/files\/Pablos_Pride_Guatemala.png?v=1628801750",
    "address": "3400 W. Main St.",
    "country": "USA",
    "state": "OK ",
    "city": "Norman",
    "postal": "73072",
    "priority": 1
  },
  {
    "lat": "30.3098255",
    "lng": "-89.8283614",
    "id": 8401433,
    "name": "Slidell Sam's Club No. 6220",
    "description": "Pablo's Pride Guatemala",
    "store_image": "https:\/\/cdn.shopify.com\/s\/files\/1\/0258\/5893\/2824\/files\/Pablos_Pride_Guatemala.png?v=1628801750",
    "address": "181 Northshore Blvd.",
    "country": "USA",
    "state": "LA",
    "city": "Slidell",
    "postal": "70460",
    "priority": 1
  },
  {
    "lat": "28.3931927",
    "lng": "-81.2482694",
    "id": 8401434,
    "name": "Orlando Sam's Club No. 4828",
    "description": "Pablo's Pride Guatemala",
    "store_image": "https:\/\/cdn.shopify.com\/s\/files\/1\/0258\/5893\/2824\/files\/Pablos_Pride_Guatemala.png?v=1628801750",
    "address": "11920 Narcoossee Rd.",
    "country": "USA",
    "state": "FL",
    "city": "Orlando",
    "postal": "32832",
    "priority": 1
  },
  {
    "lat": "36.0426307",
    "lng": "-96.0048873",
    "id": 8401435,
    "name": "Tulsa Sam's Club No. 4839",
    "description": "Pablo's Pride Guatemala",
    "store_image": "https:\/\/cdn.shopify.com\/s\/files\/1\/0258\/5893\/2824\/files\/Pablos_Pride_Guatemala.png?v=1628801750",
    "address": "7757 S Olympia Ave W",
    "country": "USA",
    "state": "OK",
    "city": "Tulsa",
    "postal": "74132",
    "priority": 1
  },
  {
    "lat": "36.100575",
    "lng": "-95.9061707",
    "id": 8401436,
    "name": "Tulsa Sam's Club No. 8263",
    "description": "Pablo's Pride Guatemala",
    "store_image": "https:\/\/cdn.shopify.com\/s\/files\/1\/0258\/5893\/2824\/files\/Pablos_Pride_Guatemala.png?v=1628801750",
    "address": "4420 S. Sheridan",
    "country": "USA",
    "state": "OK",
    "city": "Tulsa",
    "postal": "74145",
    "priority": 1
  },
  {
    "lat": "36.0625227",
    "lng": "-95.8711595",
    "id": 8401437,
    "name": "Tulsa Sam's Club No. 6342",
    "description": "Pablo's Pride Guatemala",
    "store_image": "https:\/\/cdn.shopify.com\/s\/files\/1\/0258\/5893\/2824\/files\/Pablos_Pride_Guatemala.png?v=1628801750",
    "address": "6922 S. Mingo Rd.",
    "country": "USA",
    "state": "OK",
    "city": "Tulsa",
    "postal": "74133",
    "priority": 1
  },
  {
    "lat": "29.2198765",
    "lng": "-81.0986945",
    "id": 8401438,
    "name": "Daytona Beach Sam's Club No. 8138",
    "description": "Pablo's Pride Guatemala",
    "store_image": "https:\/\/cdn.shopify.com\/s\/files\/1\/0258\/5893\/2824\/files\/Pablos_Pride_Guatemala.png?v=1628801750",
    "address": "1460 cornerstone blvd.",
    "country": "USA",
    "state": "FL",
    "city": "Daytona Beach",
    "postal": "32117",
    "priority": 1
  },
  {
    "lat": "34.7358331",
    "lng": "-86.6584102",
    "id": 8401439,
    "name": "Huntsville Sam's Club No. 4776",
    "description": "Pablo's Pride Guatemala",
    "store_image": "https:\/\/cdn.shopify.com\/s\/files\/1\/0258\/5893\/2824\/files\/Pablos_Pride_Guatemala.png?v=1628801750",
    "address": "5651 Holmes Ave.",
    "country": "USA",
    "state": "AL",
    "city": "Huntsville",
    "postal": "35816",
    "priority": 1
  },
  {
    "lat": "39.0458465",
    "lng": "-94.3671119",
    "id": 8401440,
    "name": "Independence Sam's Club No. 8293",
    "description": "Pablo's Pride Guatemala",
    "store_image": "https:\/\/cdn.shopify.com\/s\/files\/1\/0258\/5893\/2824\/files\/Pablos_Pride_Guatemala.png?v=1628801750",
    "address": "4100 Bolger Rd.",
    "country": "USA",
    "state": "MO",
    "city": "Independence",
    "postal": "64055",
    "priority": 1
  },
  {
    "lat": "38.8109104",
    "lng": "-94.4909213",
    "id": 8401441,
    "name": "Raymore Sam's Club No. 8243",
    "description": "Pablo's Pride Guatemala",
    "store_image": "https:\/\/cdn.shopify.com\/s\/files\/1\/0258\/5893\/2824\/files\/Pablos_Pride_Guatemala.png?v=1628801750",
    "address": "141 N. Dean Ave.",
    "country": "USA",
    "state": " MO",
    "city": "Raymore",
    "postal": "64083",
    "priority": 1
  },
  {
    "lat": "36.0665729",
    "lng": "-80.312354",
    "id": 8401442,
    "name": "Winston Salem Sam's Club No. 8228",
    "description": "Pablo's Pride Guatemala",
    "store_image": "https:\/\/cdn.shopify.com\/s\/files\/1\/0258\/5893\/2824\/files\/Pablos_Pride_Guatemala.png?v=1628801750",
    "address": "930 Hanes Mall Blvd.",
    "country": "USA",
    "state": "NC",
    "city": "Winston-Salem",
    "postal": "27103",
    "priority": 1
  },
  {
    "lat": "40.5341683",
    "lng": "-80.0679857",
    "id": 8401443,
    "name": "Pittsburgh Sam's Club No. 6678",
    "description": "Pablo's Pride Guatemala",
    "store_image": "https:\/\/cdn.shopify.com\/s\/files\/1\/0258\/5893\/2824\/files\/Pablos_Pride_Guatemala.png?v=1628801750",
    "address": "289 Mount Nebo Pointe Rd.",
    "country": "USA",
    "state": "PA",
    "city": "Pittsburgh",
    "postal": "15237",
    "priority": 1
  },
  {
    "lat": "27.7885347",
    "lng": "-82.6789321",
    "id": 8401444,
    "name": "St Petersburg Sam's Club No. 4861",
    "description": "Pablo's Pride Guatemala",
    "store_image": "https:\/\/cdn.shopify.com\/s\/files\/1\/0258\/5893\/2824\/files\/Pablos_Pride_Guatemala.png?v=1628801750",
    "address": "1725 34th St. N.",
    "country": "USA",
    "state": "FL",
    "city": "St Petersburg ",
    "postal": "33713",
    "priority": 1
  },
  {
    "lat": "28.1882256",
    "lng": "-82.3575742",
    "id": 8401445,
    "name": "Wesley Chapel Sam's Club No. 4852",
    "description": "Pablo's Pride Guatemala",
    "store_image": "https:\/\/cdn.shopify.com\/s\/files\/1\/0258\/5893\/2824\/files\/Pablos_Pride_Guatemala.png?v=1628801750",
    "address": "27727 State Rd. 56",
    "country": "USA",
    "state": "FL",
    "city": "Wesley Chapel",
    "postal": "33544",
    "priority": 1
  },
  {
    "lat": "40.3088397",
    "lng": "-79.5917723",
    "id": 8401446,
    "name": "Greensburg Sam's Club No. 4847",
    "description": "Pablo's Pride Guatemala",
    "store_image": "https:\/\/cdn.shopify.com\/s\/files\/1\/0258\/5893\/2824\/files\/Pablos_Pride_Guatemala.png?v=1628801750",
    "address": "6211 Route 30",
    "country": "USA",
    "state": "PA",
    "city": "Greensburg",
    "postal": "15601",
    "priority": 1
  },
  {
    "lat": "32.5409966",
    "lng": "-84.9468386",
    "id": 8401447,
    "name": "Columbus Sam's Club No. 8213",
    "description": "Pablo's Pride Guatemala",
    "store_image": "https:\/\/cdn.shopify.com\/s\/files\/1\/0258\/5893\/2824\/files\/Pablos_Pride_Guatemala.png?v=1628801750",
    "address": "5448 A Whittlesey Blvd",
    "country": "USA",
    "state": "GA",
    "city": "Columbus ",
    "postal": "31909",
    "priority": 1
  },
  {
    "lat": "28.5311304",
    "lng": "-82.503023",
    "id": 8401448,
    "name": "Brooksville Sam's Club No. 4818",
    "description": "Pablo's Pride Guatemala",
    "store_image": "https:\/\/cdn.shopify.com\/s\/files\/1\/0258\/5893\/2824\/files\/Pablos_Pride_Guatemala.png?v=1628801750",
    "address": "13360 Cortez Blvd.",
    "country": "USA",
    "state": "FL",
    "city": "Brooksville",
    "postal": "34613",
    "priority": 1
  },
  {
    "lat": "36.1729852",
    "lng": "-94.1916997",
    "id": 8401449,
    "name": "Springdale Sam's Club No. 4808",
    "description": "Pablo's Pride Guatemala",
    "store_image": "https:\/\/cdn.shopify.com\/s\/files\/1\/0258\/5893\/2824\/files\/Pablos_Pride_Guatemala.png?v=1628801750",
    "address": "1517 gene george blvd.",
    "country": "USA",
    "state": "AR",
    "city": "Springdale",
    "postal": "72762",
    "priority": 1
  },
  {
    "lat": "40.5659363",
    "lng": "-79.8041088",
    "id": 8401450,
    "name": "Tarentum Sam's Club No. 4952",
    "description": "Pablo's Pride Guatemala",
    "store_image": "https:\/\/cdn.shopify.com\/s\/files\/1\/0258\/5893\/2824\/files\/Pablos_Pride_Guatemala.png?v=1628801750",
    "address": "2000 Village Center Dr.",
    "country": "USA",
    "state": "PA",
    "city": "Tarentum",
    "postal": "15084",
    "priority": 1
  },
  {
    "lat": "34.2723249",
    "lng": "-85.2306796",
    "id": 8401451,
    "name": "Rome Sam's Club No. 6509",
    "description": "Pablo's Pride Guatemala",
    "store_image": "https:\/\/cdn.shopify.com\/s\/files\/1\/0258\/5893\/2824\/files\/Pablos_Pride_Guatemala.png?v=1628801750",
    "address": "2550 Redmond Cir.",
    "country": "USA",
    "state": "GA",
    "city": "Rome",
    "postal": "30165",
    "priority": 1
  },
  {
    "lat": "37.0846772",
    "lng": "-88.6898523",
    "id": 8401452,
    "name": "Paducah Sam's Club No. 6449",
    "description": "Pablo's Pride Guatemala",
    "store_image": "https:\/\/cdn.shopify.com\/s\/files\/1\/0258\/5893\/2824\/files\/Pablos_Pride_Guatemala.png?v=1628801750",
    "address": "3550 james-sanders blvd.",
    "country": "USA",
    "state": "KY",
    "city": "Paducah",
    "postal": "42001",
    "priority": 1
  },
  {
    "lat": "35.6423004",
    "lng": "-97.4277868",
    "id": 8401453,
    "name": "Edmond Sam's Club No. 6267",
    "description": "Pablo's Pride Guatemala",
    "store_image": "https:\/\/cdn.shopify.com\/s\/files\/1\/0258\/5893\/2824\/files\/Pablos_Pride_Guatemala.png?v=1628801750",
    "address": "1117 West i-35 Frontage Road",
    "country": "USA",
    "state": "OK",
    "city": "Edmond",
    "postal": "73034",
    "priority": 1
  },
  {
    "lat": "27.9984133",
    "lng": "-81.922789",
    "id": 8401454,
    "name": "Lakeland Sam's Club No. 4794",
    "description": "Pablo's Pride Guatemala",
    "store_image": "https:\/\/cdn.shopify.com\/s\/files\/1\/0258\/5893\/2824\/files\/Pablos_Pride_Guatemala.png?v=1628801750",
    "address": "3530 lakeland highlands rd",
    "country": "USA",
    "state": "FL",
    "city": "Lakeland",
    "postal": "33803",
    "priority": 1
  },
  {
    "lat": "39.5626118",
    "lng": "-104.900378",
    "id": 8401455,
    "name": "Lone Tree Sam's Club No. 6634",
    "description": "Pablo's Pride Guatemala",
    "store_image": "https:\/\/cdn.shopify.com\/s\/files\/1\/0258\/5893\/2824\/files\/Pablos_Pride_Guatemala.png?v=1628801750",
    "address": "7817 Park Meadows Dr.",
    "country": "USA",
    "state": "CO",
    "city": "Lone Tree",
    "postal": "80124",
    "priority": 1
  },
  {
    "lat": "27.9374161",
    "lng": "-82.3171806",
    "id": 8401456,
    "name": "Brandon Sam's Club No. 6403",
    "description": "Pablo's Pride Guatemala",
    "store_image": "https:\/\/cdn.shopify.com\/s\/files\/1\/0258\/5893\/2824\/files\/Pablos_Pride_Guatemala.png?v=1628801750",
    "address": "2021 Brandon Blvd.W.",
    "country": "USA",
    "state": "FL",
    "city": "Brandon",
    "postal": "33511",
    "priority": 1
  },
  {
    "lat": "33.7309403",
    "lng": "-84.7562014",
    "id": 8401457,
    "name": "Douglasville Sam's Club No. 8211",
    "description": "Pablo's Pride Guatemala",
    "store_image": "https:\/\/cdn.shopify.com\/s\/files\/1\/0258\/5893\/2824\/files\/Pablos_Pride_Guatemala.png?v=1628801750",
    "address": "6995 Concourse Pkwy.",
    "country": "USA",
    "state": "GA",
    "city": "Douglasville",
    "postal": "30134",
    "priority": 1
  },
  {
    "lat": "37.7402074",
    "lng": "-88.9692109",
    "id": 8401458,
    "name": "Marion Sam's Club No. 8180",
    "description": "Pablo's Pride Guatemala",
    "store_image": "https:\/\/cdn.shopify.com\/s\/files\/1\/0258\/5893\/2824\/files\/Pablos_Pride_Guatemala.png?v=1628801750",
    "address": "2709 Walton Way",
    "country": "USA",
    "state": "IL",
    "city": "Marion",
    "postal": "62959",
    "priority": 1
  },
  {
    "lat": "35.6666206",
    "lng": "-88.8518028",
    "id": 8401459,
    "name": "Jackson Sam's Club No. 6507",
    "description": "Pablo's Pride Guatemala",
    "store_image": "https:\/\/cdn.shopify.com\/s\/files\/1\/0258\/5893\/2824\/files\/Pablos_Pride_Guatemala.png?v=1628801750",
    "address": "2120 Emporium Dr.",
    "country": "USA",
    "state": "TN",
    "city": "Jackson",
    "postal": "38305",
    "priority": 1
  },
  {
    "lat": "35.9563982",
    "lng": "-78.5388293",
    "id": 8401460,
    "name": "Wake Forest Sam's Club No. 6976",
    "description": "Pablo's Pride Guatemala",
    "store_image": "https:\/\/cdn.shopify.com\/s\/files\/1\/0258\/5893\/2824\/files\/Pablos_Pride_Guatemala.png?v=1628801750",
    "address": "11460 Royall Cotton rd",
    "country": "USA",
    "state": "NC",
    "city": "Wake Forest",
    "postal": "27587",
    "priority": 1
  },
  {
    "lat": "41.9706676",
    "lng": "-73.9831866",
    "id": 8401461,
    "name": "Kingston Sam's Club No. 6201",
    "description": "Pablo's Pride Guatemala",
    "store_image": "https:\/\/cdn.shopify.com\/s\/files\/1\/0258\/5893\/2824\/files\/Pablos_Pride_Guatemala.png?v=1628801750",
    "address": "801 Frank Sotille Blvd.",
    "country": "USA",
    "state": "NY",
    "city": "Kingston",
    "postal": "12401",
    "priority": 1
  },
  {
    "lat": "33.9503421",
    "lng": "-84.1364228",
    "id": 8401462,
    "name": "Duluth Sam's Club No. 8166",
    "description": "Pablo's Pride Guatemala",
    "store_image": "https:\/\/cdn.shopify.com\/s\/files\/1\/0258\/5893\/2824\/files\/Pablos_Pride_Guatemala.png?v=1628801750",
    "address": "3450 Steve Reynolds Blvd.",
    "country": "USA",
    "state": "GA",
    "city": "Duluth",
    "postal": "30096",
    "priority": 1
  },
  {
    "lat": "45.7540078",
    "lng": "-108.5266618",
    "id": 8401463,
    "name": "Billings Sam's Club No. 4805",
    "description": "Pablo's Pride Guatemala",
    "store_image": "https:\/\/cdn.shopify.com\/s\/files\/1\/0258\/5893\/2824\/files\/Pablos_Pride_Guatemala.png?v=1628801750",
    "address": "4420 King Ave East",
    "country": "USA",
    "state": "MT",
    "city": "Billings",
    "postal": "59101",
    "priority": 1
  },
  {
    "lat": "32.815142",
    "lng": "-83.7117771",
    "id": 8401464,
    "name": "Macon Sam's Club No. 8225",
    "description": "Pablo's Pride Guatemala",
    "store_image": "https:\/\/cdn.shopify.com\/s\/files\/1\/0258\/5893\/2824\/files\/Pablos_Pride_Guatemala.png?v=1628801750",
    "address": "4701 Log Cabin Dr.",
    "country": "USA",
    "state": "GA",
    "city": "Macon",
    "postal": "31204",
    "priority": 1
  },
  {
    "lat": "39.1869478",
    "lng": "-84.6059081",
    "id": 8401465,
    "name": "Cincinnati Sam's Club No. 6450",
    "description": "Pablo's Pride Guatemala",
    "store_image": "https:\/\/cdn.shopify.com\/s\/files\/1\/0258\/5893\/2824\/files\/Pablos_Pride_Guatemala.png?v=1628801750",
    "address": "5375 N. Bend Rd.",
    "country": "USA",
    "state": "OH",
    "city": "Cincinnati",
    "postal": "45247",
    "priority": 1
  },
  {
    "lat": "37.9825059",
    "lng": "-87.4707578",
    "id": 8401466,
    "name": "Evansville Sam's Club No. 8123",
    "description": "Pablo's Pride Guatemala",
    "store_image": "https:\/\/cdn.shopify.com\/s\/files\/1\/0258\/5893\/2824\/files\/Pablos_Pride_Guatemala.png?v=1628801750",
    "address": "6770 E. Virginia St.",
    "country": "USA",
    "state": "IN",
    "city": "Evansville",
    "postal": "47715",
    "priority": 1
  },
  {
    "lat": "30.8288913",
    "lng": "-83.3204832",
    "id": 8401467,
    "name": "Valdosta Sam's Club No. 6204",
    "description": "Pablo's Pride Guatemala",
    "store_image": "https:\/\/cdn.shopify.com\/s\/files\/1\/0258\/5893\/2824\/files\/Pablos_Pride_Guatemala.png?v=1628801750",
    "address": "450 Norman Dr.",
    "country": "USA",
    "state": "GA",
    "city": "Valdosta",
    "postal": "31601",
    "priority": 1
  },
  {
    "lat": "40.4126915",
    "lng": "-75.9242318",
    "id": 8401468,
    "name": "Temple Sam's Club No. 8160",
    "description": "Pablo's Pride Guatemala",
    "store_image": "https:\/\/cdn.shopify.com\/s\/files\/1\/0258\/5893\/2824\/files\/Pablos_Pride_Guatemala.png?v=1628801750",
    "address": "5314 Allentown Pike",
    "country": "USA",
    "state": "PA",
    "city": "Temple",
    "postal": "19560",
    "priority": 1
  },
  {
    "lat": "35.3228844",
    "lng": "-97.4876811",
    "id": 8401469,
    "name": "Moore Sam's Club No. 6779",
    "description": "Pablo's Pride Guatemala",
    "store_image": "https:\/\/cdn.shopify.com\/s\/files\/1\/0258\/5893\/2824\/files\/Pablos_Pride_Guatemala.png?v=1628801750",
    "address": "1705 South Broadway Ave",
    "country": "USA",
    "state": "OK",
    "city": "Moore",
    "postal": "73160",
    "priority": 1
  },
  {
    "lat": "36.6027525",
    "lng": "-87.278221",
    "id": 8401470,
    "name": "Clarksville Sam's Club No. 6512",
    "description": "Pablo's Pride Guatemala",
    "store_image": "https:\/\/cdn.shopify.com\/s\/files\/1\/0258\/5893\/2824\/files\/Pablos_Pride_Guatemala.png?v=1628801750",
    "address": "3315 Gutherie Hwy.",
    "country": "USA",
    "state": "TN",
    "city": "Clarksville",
    "postal": "37040",
    "priority": 1
  },
  {
    "lat": "30.6339453",
    "lng": "-96.3023137",
    "id": 8401471,
    "name": "College Station Sam's Club No. 6338",
    "description": "Pablo's Pride Guatemala",
    "store_image": "https:\/\/cdn.shopify.com\/s\/files\/1\/0258\/5893\/2824\/files\/Pablos_Pride_Guatemala.png?v=1628801750",
    "address": "1405 E. Earl Rudder Hwy.",
    "country": "USA",
    "state": "TX",
    "city": "College Station",
    "postal": "77845",
    "priority": 1
  },
  {
    "lat": "39.1865816",
    "lng": "-94.5796927",
    "id": 8401472,
    "name": "Kansas City Sam's Club No. 8207",
    "description": "Pablo's Pride Guatemala",
    "store_image": "https:\/\/cdn.shopify.com\/s\/files\/1\/0258\/5893\/2824\/files\/Pablos_Pride_Guatemala.png?v=1628801750",
    "address": "5110 N. Oak Trfy.",
    "country": "USA",
    "state": "MO",
    "city": "Kansas City",
    "postal": "64118",
    "priority": 1
  },
  {
    "lat": "37.6747785",
    "lng": "-97.4155338",
    "id": 8401473,
    "name": "Wichita Sam's Club No. 8254",
    "description": "Pablo's Pride Guatemala",
    "store_image": "https:\/\/cdn.shopify.com\/s\/files\/1\/0258\/5893\/2824\/files\/Pablos_Pride_Guatemala.png?v=1628801750",
    "address": "6200 W Kellogg Dr Ste A",
    "country": "USA",
    "state": "KS",
    "city": "Wichita",
    "postal": "67209",
    "priority": 1
  },
  {
    "lat": "39.1865816",
    "lng": "-94.5796927",
    "id": 8401474,
    "name": "Kansas City Sam's Club No. 8207",
    "description": "Pablo's Pride Guatemala",
    "store_image": "https:\/\/cdn.shopify.com\/s\/files\/1\/0258\/5893\/2824\/files\/Pablos_Pride_Guatemala.png?v=1628801750",
    "address": "5110 N. Oak Trfy.",
    "country": "USA",
    "state": "MO",
    "city": "Kansas City",
    "postal": "64118",
    "priority": 1
  },
  {
    "lat": "37.3186888",
    "lng": "-79.9654542",
    "id": 8401475,
    "name": "Roanoke Sam's Club No. 8220",
    "description": "Pablo's Pride Guatemala",
    "store_image": "https:\/\/cdn.shopify.com\/s\/files\/1\/0258\/5893\/2824\/files\/Pablos_Pride_Guatemala.png?v=1628801750",
    "address": "1455 Towne Square Blvd.",
    "country": "USA",
    "state": "VA",
    "city": "Roanoke",
    "postal": "24012",
    "priority": 1
  },
  {
    "lat": "32.608092",
    "lng": "-85.4254668",
    "id": 8401476,
    "name": "Auburn Sam's Club No. 4989",
    "description": "Pablo's Pride Guatemala",
    "store_image": "https:\/\/cdn.shopify.com\/s\/files\/1\/0258\/5893\/2824\/files\/Pablos_Pride_Guatemala.png?v=1628801750",
    "address": "2335 Bent Creek Road",
    "country": "USA",
    "state": "AL",
    "city": "Auburn",
    "postal": "36830",
    "priority": 1
  },
  {
    "lat": "35.0297505",
    "lng": "-85.1900522",
    "id": 8401477,
    "name": "Chattanooga Sam's Club No. 8112",
    "description": "Pablo's Pride Guatemala",
    "store_image": "https:\/\/cdn.shopify.com\/s\/files\/1\/0258\/5893\/2824\/files\/Pablos_Pride_Guatemala.png?v=1628801750",
    "address": "6101 Lee Hwy.",
    "country": "USA",
    "state": "TN",
    "city": "Chattanooga",
    "postal": "37421",
    "priority": 1
  },
  {
    "lat": "33.4613738",
    "lng": "-84.2137788",
    "id": 8401478,
    "name": "Mcdonough Sam's Club No. 4804",
    "description": "Pablo's Pride Guatemala",
    "store_image": "https:\/\/cdn.shopify.com\/s\/files\/1\/0258\/5893\/2824\/files\/Pablos_Pride_Guatemala.png?v=1628801750",
    "address": "1765 Jonesboro Rd.",
    "country": "USA",
    "state": "GA",
    "city": "McDonough",
    "postal": "30253",
    "priority": 1
  },
  {
    "lat": "36.3293081",
    "lng": "-86.5974727",
    "id": 8401479,
    "name": "Hendersonville Sam's Club No. 8257",
    "description": "Pablo's Pride Guatemala",
    "store_image": "https:\/\/cdn.shopify.com\/s\/files\/1\/0258\/5893\/2824\/files\/Pablos_Pride_Guatemala.png?v=1628801750",
    "address": "301 Indian Lake Blvd",
    "country": "USA",
    "state": "TN",
    "city": "Hendersonville",
    "postal": "37075",
    "priority": 1
  },
  {
    "lat": "40.1852995",
    "lng": "-80.21784",
    "id": 8401480,
    "name": "Washington Sam's Club No. 6251",
    "description": "Pablo's Pride Guatemala",
    "store_image": "https:\/\/cdn.shopify.com\/s\/files\/1\/0258\/5893\/2824\/files\/Pablos_Pride_Guatemala.png?v=1628801750",
    "address": "80 Trinity Point Dr.",
    "country": "USA",
    "state": "PA",
    "city": "Washington",
    "postal": "15301",
    "priority": 1
  },
  {
    "lat": "39.3929308",
    "lng": "-74.5446804",
    "id": 8401481,
    "name": "Pleasantville Sam'sClub No. 8144",
    "description": "Pablo's Pride Guatemala",
    "store_image": "https:\/\/cdn.shopify.com\/s\/files\/1\/0258\/5893\/2824\/files\/Pablos_Pride_Guatemala.png?v=1628801750",
    "address": "1025 Black Horse Pike",
    "country": "USA",
    "state": "NJ",
    "city": "Pleasantville",
    "postal": "8232",
    "priority": 1
  },
  {
    "lat": "40.1852995",
    "lng": "-80.21784",
    "id": 8401482,
    "name": "Washington Sam's Club No. 6251",
    "description": "Pablo's Pride Guatemala",
    "store_image": "https:\/\/cdn.shopify.com\/s\/files\/1\/0258\/5893\/2824\/files\/Pablos_Pride_Guatemala.png?v=1628801750",
    "address": "80 Trinity Point Dr.",
    "country": "USA",
    "state": "PA",
    "city": "Washington",
    "postal": "15301",
    "priority": 1
  },
  {
    "lat": "34.9597952",
    "lng": "-89.9818107",
    "id": 8401483,
    "name": "Southaven Sam's Club No. 4740",
    "description": "Pablo's Pride Guatemala",
    "store_image": "https:\/\/cdn.shopify.com\/s\/files\/1\/0258\/5893\/2824\/files\/Pablos_Pride_Guatemala.png?v=1628801750",
    "address": "465 Goodman Rd e",
    "country": "USA",
    "state": "MS",
    "city": "Southaven",
    "postal": "38671",
    "priority": 1
  },
  {
    "lat": "39.1476337",
    "lng": "-76.6484909",
    "id": 8401484,
    "name": "Severn Sam's Club No. 4771",
    "description": "Pablo's Pride Guatemala",
    "store_image": "https:\/\/cdn.shopify.com\/s\/files\/1\/0258\/5893\/2824\/files\/Pablos_Pride_Guatemala.png?v=1628801750",
    "address": "424 George Clauss Blvd",
    "country": "USA",
    "state": "MD",
    "city": "Severn",
    "postal": "21144",
    "priority": 1
  },
  {
    "lat": "42.0519253",
    "lng": "-80.0905424",
    "id": 8401485,
    "name": "Erie Sam's Club No. 6675",
    "description": "Pablo's Pride Guatemala",
    "store_image": "https:\/\/cdn.shopify.com\/s\/files\/1\/0258\/5893\/2824\/files\/Pablos_Pride_Guatemala.png?v=1628801750",
    "address": "7200 Peach St.",
    "country": "USA",
    "state": "PA",
    "city": "Erie",
    "postal": "16509",
    "priority": 1
  },
  {
    "lat": "28.0962512",
    "lng": "-82.4999781",
    "id": 8401486,
    "name": "Tampa Sam's Club No. 6401",
    "description": "Pablo's Pride Guatemala",
    "store_image": "https:\/\/cdn.shopify.com\/s\/files\/1\/0258\/5893\/2824\/files\/Pablos_Pride_Guatemala.png?v=1628801750",
    "address": "15835 N Dale Mabry Hwy",
    "country": "USA",
    "state": "FL",
    "city": "Tampa",
    "postal": "33618",
    "priority": 1
  },
  {
    "lat": "33.644533",
    "lng": "-86.6251242",
    "id": 8401487,
    "name": "Birmingham Sam's Club No. 4817",
    "description": "Pablo's Pride Guatemala",
    "store_image": "https:\/\/cdn.shopify.com\/s\/files\/1\/0258\/5893\/2824\/files\/Pablos_Pride_Guatemala.png?v=1628801750",
    "address": "5940 Trussville Crossing Pkway",
    "country": "USA",
    "state": "AL",
    "city": "Birmingham",
    "postal": "35235",
    "priority": 1
  },
  {
    "lat": "33.8874419",
    "lng": "-84.7495107",
    "id": 8401488,
    "name": "Hiram Sam's Club No. 4802",
    "description": "Pablo's Pride Guatemala",
    "store_image": "https:\/\/cdn.shopify.com\/s\/files\/1\/0258\/5893\/2824\/files\/Pablos_Pride_Guatemala.png?v=1628801750",
    "address": "4798 Jimmy Lee Smith Pkwy.",
    "country": "USA",
    "state": "GA",
    "city": "Hiram",
    "postal": "30141",
    "priority": 1
  },
  {
    "lat": "30.1880331",
    "lng": "-85.6882682",
    "id": 8401489,
    "name": "Panama City Sam's Club No. 8151",
    "description": "Pablo's Pride Guatemala",
    "store_image": "https:\/\/cdn.shopify.com\/s\/files\/1\/0258\/5893\/2824\/files\/Pablos_Pride_Guatemala.png?v=1628801750",
    "address": "1707 W. 23rd St.",
    "country": "USA",
    "state": "FL",
    "city": "Panama City",
    "postal": "32405",
    "priority": 1
  },
  {
    "lat": "39.7203833",
    "lng": "-75.0200421",
    "id": 8401490,
    "name": "Williamstown Sam's Club No. 4722",
    "description": "Pablo's Pride Guatemala",
    "store_image": "https:\/\/cdn.shopify.com\/s\/files\/1\/0258\/5893\/2824\/files\/Pablos_Pride_Guatemala.png?v=1628801750",
    "address": "2080 N. Blackhorse Pike",
    "country": "USA",
    "state": "NJ",
    "city": "Williamstown",
    "postal": "8094",
    "priority": 1
  },
  {
    "lat": "35.2067492",
    "lng": "-89.7805166",
    "id": 8401491,
    "name": "Bartlett Sam's Club No. 6260",
    "description": "Pablo's Pride Guatemala",
    "store_image": "https:\/\/cdn.shopify.com\/s\/files\/1\/0258\/5893\/2824\/files\/Pablos_Pride_Guatemala.png?v=1628801750",
    "address": "8480 US Highway 64",
    "country": "USA",
    "state": "TN",
    "city": "Bartlett",
    "postal": "38133",
    "priority": 1
  },
  {
    "lat": "35.4362786",
    "lng": "-97.4148157",
    "id": 8401492,
    "name": "Midwest City Sam's Club No. 8241",
    "description": "Pablo's Pride Guatemala",
    "store_image": "https:\/\/cdn.shopify.com\/s\/files\/1\/0258\/5893\/2824\/files\/Pablos_Pride_Guatemala.png?v=1628801750",
    "address": "6521 S.E. 29th St.",
    "country": "USA",
    "state": "OK",
    "city": "Midwest City",
    "postal": "73110",
    "priority": 1
  },
  {
    "lat": "36.1859544",
    "lng": "-80.2745936",
    "id": 8401493,
    "name": "Winston Salem Sam's Club No. 4798",
    "description": "Pablo's Pride Guatemala",
    "store_image": "https:\/\/cdn.shopify.com\/s\/files\/1\/0258\/5893\/2824\/files\/Pablos_Pride_Guatemala.png?v=1628801750",
    "address": "84 Summit Square Blvd.",
    "country": "USA",
    "state": "NC",
    "city": "Winston-Salem",
    "postal": "27105",
    "priority": 1
  },
  {
    "lat": "35.2067492",
    "lng": "-89.7805166",
    "id": 8401494,
    "name": "Bartlett Sam's Club No. 6260",
    "description": "Pablo's Pride Guatemala",
    "store_image": "https:\/\/cdn.shopify.com\/s\/files\/1\/0258\/5893\/2824\/files\/Pablos_Pride_Guatemala.png?v=1628801750",
    "address": "8480 US Highway 64",
    "country": "USA",
    "state": "TN",
    "city": "Bartlett",
    "postal": "38133",
    "priority": 1
  },
  {
    "lat": "34.6171305",
    "lng": "-98.4242482",
    "id": 8401495,
    "name": "Lawton Sam's Club No. 8239",
    "description": "Pablo's Pride Guatemala",
    "store_image": "https:\/\/cdn.shopify.com\/s\/files\/1\/0258\/5893\/2824\/files\/Pablos_Pride_Guatemala.png?v=1628801750",
    "address": "802 N.W. Sheridan",
    "country": "USA",
    "state": "OK",
    "city": "Lawton",
    "postal": "73505",
    "priority": 1
  },
  {
    "lat": "33.4583349",
    "lng": "-94.0855579",
    "id": 8401496,
    "name": "Texarkana Sam's Club No. 8295",
    "description": "Pablo's Pride Guatemala",
    "store_image": "https:\/\/cdn.shopify.com\/s\/files\/1\/0258\/5893\/2824\/files\/Pablos_Pride_Guatemala.png?v=1628801750",
    "address": "3610 St. Michael Dr.",
    "country": "USA",
    "state": "TX",
    "city": "Texarkana",
    "postal": "75503",
    "priority": 1
  },
  {
    "lat": "32.2690241",
    "lng": "-90.1481824",
    "id": 8401497,
    "name": "Pearl Sam's Club No. 4790",
    "description": "Pablo's Pride Guatemala",
    "store_image": "https:\/\/cdn.shopify.com\/s\/files\/1\/0258\/5893\/2824\/files\/Pablos_Pride_Guatemala.png?v=1628801750",
    "address": "90 Bass Pro Drive",
    "country": "USA",
    "state": "MS",
    "city": "Pearl",
    "postal": "39208",
    "priority": 1
  },
  {
    "lat": "41.6521996",
    "lng": "-72.7325515",
    "id": 8401498,
    "name": "Newington Sam's Club No. 6636",
    "description": "Pablo's Pride Guatemala",
    "store_image": "https:\/\/cdn.shopify.com\/s\/files\/1\/0258\/5893\/2824\/files\/Pablos_Pride_Guatemala.png?v=1628801750",
    "address": "3465 Berlin Turnpike",
    "country": "USA",
    "state": "CT",
    "city": "Newington,",
    "postal": "6111",
    "priority": 1
  },
  {
    "lat": "39.7622314",
    "lng": "-86.2632205",
    "id": 8401499,
    "name": "Indianapolis Sam's Club No. 6304",
    "description": "Pablo's Pride Guatemala",
    "store_image": "https:\/\/cdn.shopify.com\/s\/files\/1\/0258\/5893\/2824\/files\/Pablos_Pride_Guatemala.png?v=1628801750",
    "address": "5805 Rockville Rd.",
    "country": "USA",
    "state": "IN",
    "city": "Indianapolis",
    "postal": "46224",
    "priority": 1
  },
  {
    "lat": "30.2851177",
    "lng": "-81.5397585",
    "id": 8401500,
    "name": "Jacksonville Sam's Club No. 8116",
    "description": "Pablo's Pride Guatemala",
    "store_image": "https:\/\/cdn.shopify.com\/s\/files\/1\/0258\/5893\/2824\/files\/Pablos_Pride_Guatemala.png?v=1628801750",
    "address": "10690 beach blvd.",
    "country": "USA",
    "state": "FL",
    "city": "Jacksonville",
    "postal": "32246",
    "priority": 1
  },
  {
    "lat": "39.193467",
    "lng": "-75.5522479",
    "id": 8401501,
    "name": "Dover Sam's Club No. 6330",
    "description": "Pablo's Pride Guatemala",
    "store_image": "https:\/\/cdn.shopify.com\/s\/files\/1\/0258\/5893\/2824\/files\/Pablos_Pride_Guatemala.png?v=1628801750",
    "address": "1572 N. Dupont Hwy.",
    "country": "USA",
    "state": "DE",
    "city": "Dover",
    "postal": "19901",
    "priority": 1
  },
  {
    "lat": "36.6359003",
    "lng": "-82.1259692",
    "id": 8401502,
    "name": "Bristol Sam's Club No. 6518",
    "description": "Pablo's Pride Guatemala",
    "store_image": "https:\/\/cdn.shopify.com\/s\/files\/1\/0258\/5893\/2824\/files\/Pablos_Pride_Guatemala.png?v=1628801750",
    "address": "13249 Lee Hwy",
    "country": "USA",
    "state": "VA",
    "city": "Bristol",
    "postal": "24202",
    "priority": 1
  },
  {
    "lat": "38.9591419",
    "lng": "-94.7272677",
    "id": 8401503,
    "name": "Lenexa Sam's Club No. 8208",
    "description": "Pablo's Pride Guatemala",
    "store_image": "https:\/\/cdn.shopify.com\/s\/files\/1\/0258\/5893\/2824\/files\/Pablos_Pride_Guatemala.png?v=1628801750",
    "address": "12200 W. 95th St.",
    "country": "USA",
    "state": "KS",
    "city": "Lenexa",
    "postal": "66215",
    "priority": 1
  },
  {
    "lat": "33.1652119",
    "lng": "-87.5205741",
    "id": 8401504,
    "name": "Tuscaloosa Sam's Club No. 6435",
    "description": "Pablo's Pride Guatemala",
    "store_image": "https:\/\/cdn.shopify.com\/s\/files\/1\/0258\/5893\/2824\/files\/Pablos_Pride_Guatemala.png?v=1628801750",
    "address": "1401 Skyland Blvd. E.",
    "country": "USA",
    "state": "AL",
    "city": "Tuscaloosa",
    "postal": "35405",
    "priority": 1
  },
  {
    "lat": "40.4489903",
    "lng": "-80.177284",
    "id": 8401505,
    "name": "Pittsburgh (Robinson) Sam's Club No. 6575",
    "description": "Pablo's Pride Guatemala",
    "store_image": "https:\/\/cdn.shopify.com\/s\/files\/1\/0258\/5893\/2824\/files\/Pablos_Pride_Guatemala.png?v=1628801750",
    "address": "249 Summit Park Dr.",
    "country": "USA",
    "state": "PA",
    "city": "Pittsburgh",
    "postal": "15275",
    "priority": 1
  },
  {
    "lat": "40.8770756",
    "lng": "-79.9531948",
    "id": 8401506,
    "name": "Butler Sam's Club No. 4859",
    "description": "Pablo's Pride Guatemala",
    "store_image": "https:\/\/cdn.shopify.com\/s\/files\/1\/0258\/5893\/2824\/files\/Pablos_Pride_Guatemala.png?v=1628801750",
    "address": "200 Moraine Pointe Plz.",
    "country": "USA",
    "state": "PA",
    "city": "Butler",
    "postal": "16001",
    "priority": 1
  },
  {
    "lat": "40.8598916",
    "lng": "-96.677532",
    "id": 8401507,
    "name": "Lincoln Sam's Club No. 6413",
    "description": "Pablo's Pride Guatemala",
    "store_image": "https:\/\/cdn.shopify.com\/s\/files\/1\/0258\/5893\/2824\/files\/Pablos_Pride_Guatemala.png?v=1628801750",
    "address": "4900 N. 27th St.",
    "country": "USA",
    "state": "NE",
    "city": "Lincoln",
    "postal": "68521",
    "priority": 1
  },
  {
    "lat": "40.0929092",
    "lng": "-74.9586355",
    "id": 8401508,
    "name": "Philadelphia Sam's Club No. 6332",
    "description": "Pablo's Pride Guatemala",
    "store_image": "https:\/\/cdn.shopify.com\/s\/files\/1\/0258\/5893\/2824\/files\/Pablos_Pride_Guatemala.png?v=1628801750",
    "address": "1000 Franklin Mills Cir.",
    "country": "USA",
    "state": "PA",
    "city": "Philadelphia",
    "postal": "19154",
    "priority": 1
  },
  {
    "lat": "40.7819542",
    "lng": "-82.5882254",
    "id": 8401509,
    "name": "Ontario Sam's Club No. 6407",
    "description": "Pablo's Pride Guatemala",
    "store_image": "https:\/\/cdn.shopify.com\/s\/files\/1\/0258\/5893\/2824\/files\/Pablos_Pride_Guatemala.png?v=1628801750",
    "address": "1070 N Lexington Springmill Rd",
    "country": "USA",
    "state": "OH",
    "city": "Ontario",
    "postal": "44906",
    "priority": 1
  },
  {
    "lat": "34.0886397",
    "lng": "-84.5205805",
    "id": 8401510,
    "name": "Woodstock Sam's Club No. 8158",
    "description": "Pablo's Pride Guatemala",
    "store_image": "https:\/\/cdn.shopify.com\/s\/files\/1\/0258\/5893\/2824\/files\/Pablos_Pride_Guatemala.png?v=1628801750",
    "address": "9464 Main St.",
    "country": "USA",
    "state": "GA",
    "city": "Woodstock",
    "postal": "30188",
    "priority": 1
  },
  {
    "lat": "41.4216163",
    "lng": "-82.082248",
    "id": 8401511,
    "name": "Sheffield Village Sam's Club No. 6314",
    "description": "Pablo's Pride Guatemala",
    "store_image": "https:\/\/cdn.shopify.com\/s\/files\/1\/0258\/5893\/2824\/files\/Pablos_Pride_Guatemala.png?v=1628801750",
    "address": "5225 cobblestone rd.",
    "country": "USA",
    "state": "OH",
    "city": "Sheffield Village",
    "postal": "44035",
    "priority": 1
  },
  {
    "lat": "40.5173827",
    "lng": "-74.3766333",
    "id": 8401512,
    "name": "Edison Sam's Club No. 6369",
    "description": "Pablo's Pride Guatemala",
    "store_image": "https:\/\/cdn.shopify.com\/s\/files\/1\/0258\/5893\/2824\/files\/Pablos_Pride_Guatemala.png?v=1628801750",
    "address": "883 Route 1",
    "country": "USA",
    "state": "NJ",
    "city": "Edison",
    "postal": "8817",
    "priority": 1
  },
  {
    "lat": "40.2615687",
    "lng": "-76.7693594",
    "id": 8401513,
    "name": "Harrisburg Sam's Club No. 8175",
    "description": "Pablo's Pride Guatemala",
    "store_image": "https:\/\/cdn.shopify.com\/s\/files\/1\/0258\/5893\/2824\/files\/Pablos_Pride_Guatemala.png?v=1628801750",
    "address": "6781 Grayson Rd.",
    "country": "USA",
    "state": "PA",
    "city": "Harrisburg",
    "postal": "17111",
    "priority": 1
  },
  {
    "lat": "33.3736816",
    "lng": "-86.8087447",
    "id": 8401514,
    "name": "Hoover Sam's Club No. 4724",
    "description": "Pablo's Pride Guatemala",
    "store_image": "https:\/\/cdn.shopify.com\/s\/files\/1\/0258\/5893\/2824\/files\/Pablos_Pride_Guatemala.png?v=1628801750",
    "address": "3053 John Hawkins Pkwy.",
    "country": "USA",
    "state": "AL",
    "city": "Hoover",
    "postal": "35244",
    "priority": 1
  },
  {
    "lat": "28.4222949",
    "lng": "-81.4062621",
    "id": 8401515,
    "name": "Orlando Sam's Club No. 8290",
    "description": "Pablo's Pride Guatemala",
    "store_image": "https:\/\/cdn.shopify.com\/s\/files\/1\/0258\/5893\/2824\/files\/Pablos_Pride_Guatemala.png?v=1628801750",
    "address": "9498 S. Orange Blossom Tr.",
    "country": "USA",
    "state": "FL",
    "city": "Orlando",
    "postal": "32837",
    "priority": 1
  },
  {
    "lat": "41.5171746",
    "lng": "-88.1252111",
    "id": 8401516,
    "name": "Joliet Sam's Club No. 8298",
    "description": "Pablo's Pride Guatemala",
    "store_image": "https:\/\/cdn.shopify.com\/s\/files\/1\/0258\/5893\/2824\/files\/Pablos_Pride_Guatemala.png?v=1628801750",
    "address": "321 S Larkin Ave",
    "country": "USA",
    "state": "IL",
    "city": "Joliet",
    "postal": "60436",
    "priority": 1
  },
  {
    "lat": "42.9151058",
    "lng": "-78.7506318",
    "id": 8401517,
    "name": "Cheektowaga Sam's Club No. 6673",
    "description": "Pablo's Pride Guatemala",
    "store_image": "https:\/\/cdn.shopify.com\/s\/files\/1\/0258\/5893\/2824\/files\/Pablos_Pride_Guatemala.png?v=1628801750",
    "address": "3735 Union Rd.",
    "country": "USA",
    "state": "NY",
    "city": "Cheektowaga",
    "postal": "14225",
    "priority": 1
  },
  {
    "lat": "39.9785626",
    "lng": "-76.672534",
    "id": 8401518,
    "name": "York Sam's Club No. 8161",
    "description": "Pablo's Pride Guatemala",
    "store_image": "https:\/\/cdn.shopify.com\/s\/files\/1\/0258\/5893\/2824\/files\/Pablos_Pride_Guatemala.png?v=1628801750",
    "address": "2801 E. Market St.",
    "country": "USA",
    "state": "PA",
    "city": "York",
    "postal": "17402",
    "priority": 1
  },
  {
    "lat": "33.9386909",
    "lng": "-83.4863579",
    "id": 8401519,
    "name": "Bogart Sam's Club No. 8194",
    "description": "Pablo's Pride Guatemala",
    "store_image": "https:\/\/cdn.shopify.com\/s\/files\/1\/0258\/5893\/2824\/files\/Pablos_Pride_Guatemala.png?v=1628801750",
    "address": "4365 Atlanta Hwy.",
    "country": "USA",
    "state": "GA",
    "city": "Bogart",
    "postal": "30606",
    "priority": 1
  }
]